[
  {
    "id": "oviedo-mercadona-uria",
    "name": "Mercadona",
    "location": { "latitude": 43.36142, "longitude": -5.84955 },
    "address": "Calle Uría 12, 33003 Oviedo"
  },
  {
    "id": "oviedo-alimerka-galicia",
    "name": "Alimerka",
    "location": { "latitude": 43.36412, "longitude": -5.85001 },
    "address": "Avenida de Galicia 21, 33005 Oviedo"
  },
  {
    "id": "oviedo-dia-san-francisco",
    "name": "DIA",
    "location": { "latitude": 43.36275, "longitude": -5.85132 },
    "address": "Calle San Francisco 3, 33003 Oviedo"
  },
  {
    "id": "oviedo-lidl-independencia",
    "name": "Lidl",
    "location": { "latitude": 43.35588, "longitude": -5.84672 },
    "address": "Calle Independencia 45, 33011 Oviedo"
  },
  {
    "id": "oviedo-supercor-elorza",
    "name": "Supercor",
    "location": { "latitude": 43.35977, "longitude": -5.84812 },
    "address": "Calle General Elorza 18, 33001 Oviedo"
  },

  {
    "id": "gijon-mercadona-corrida",
    "name": "Mercadona",
    "location": { "latitude": 43.54527, "longitude": -5.66221 },
    "address": "Calle Corrida 41, 33206 Gijón"
  },
  {
    "id": "gijon-alimerka-poniente",
    "name": "Alimerka",
    "location": { "latitude": 43.54388, "longitude": -5.66491 },
    "address": "Calle Rodríguez San Pedro 16, 33206 Gijón"
  },
  {
    "id": "gijon-dia-arquimedes",
    "name": "DIA",
    "location": { "latitude": 43.54152, "longitude": -5.65743 },
    "address": "Calle Arquímedes 28, 33208 Gijón"
  },
  {
    "id": "gijon-lidl-constitucion",
    "name": "Lidl",
    "location": { "latitude": 43.53894, "longitude": -5.66788 },
    "address": "Avenida de la Constitución 102, 33211 Gijón"
  },
  {
    "id": "gijon-eroski-llano",
    "name": "Eroski",
    "location": { "latitude": 43.53341, "longitude": -5.65922 },
    "address": "Calle del Río Eo 7, 33210 Gijón"
  }
]
